{
"type": "FeatureCollection",
"lastupdate": "2020-07-24T00:48:03Z",
"features": [
	{"geometry":{"coordinates":[-2.6273,53.381678],"type":"Point"},"properties":{"amenity":"recycling","osm_id":"538888200"},"type":"Feature"},
	{"geometry":{"coordinates":[-2.582284,53.371524],"type":"Point"},"properties":{"amenity":"recycling","osm_id":"3964007804","tag":{"location":"overground","recycling_type":"container"}},"type":"Feature"},
	{"geometry":{"coordinates":[-2.583305,53.373756],"type":"Point"},"properties":{"amenity":"recycling","name":"Morrisons","osm_id":"4552463353","tag":{"recycling_type":"container"}},"type":"Feature"},
	{"geometry":{"coordinates":[-2.5784,53.368062],"type":"Point"},"properties":{"amenity":"recycling","name":"Stockton Heath Recylcing Centre","osm_id":"5316916732","tag":{"addr:postcode":"WA4 2AY","opening_hours":"Mo-Su 08:00-16:00","recycling_type":"centre","website":"https://www.warrington.gov.uk/tip"}},"type":"Feature"},
	{"geometry":{"coordinates":[-2.583144,53.37186],"type":"Point"},"properties":{"amenity":"recycling","osm_id":"7239441907","tag":{" mainly cardboard":null,"description":"Now little there","recycling_type":"centre"}},"type":"Feature"}
]
}
