{
"type": "FeatureCollection",
"lastupdate": "2020-07-29T00:24:51Z",
"features": [
	{"geometry":{"coordinates":[-5.056127,55.83401],"type":"Point"},"properties":{"amenity":"recycling","name":"Fyne Futures - Recycling & Bio Diesel -","osm_id":"1882140463","tag":{"contact:website":"www.fynefutures.org.uk","recycling:books":"yes","recycling:cans":"yes","recycling:cardboard":"yes","recycling:cartons":"yes","recycling:clothes":"yes","recycling:newspaper":"yes","recycling:paper":"yes","recycling:paper_packaging":"yes","recycling:plastic_bottles":"yes","recycling_type":"centre"}},"type":"Feature"},
	{"geometry":{"coordinates":[-5.053187,55.836359],"type":"Point"},"properties":{"amenity":"recycling","name":"Bring Site","osm_id":"1882144545","tag":{"description":"1 X 360 signed paper; 2 x can bins; 2 X 1100 plastics","recycling:cans":"yes","recycling:cardboard":"no","recycling:paper":"yes","recycling:plastic_bottles":"yes","recycling_type":"container"}},"type":"Feature"},
	{"geometry":{"coordinates":[-5.087252,55.860674],"type":"Point"},"properties":{"amenity":"recycling","name":"Bring Site","osm_id":"1882148044","tag":{"recycling:batteries":"no","recycling:books":"yes","recycling:cans":"yes","recycling:cardboard":"yes","recycling:cartons":"yes","recycling:clothes":"yes","recycling:electrical_appliances":"no","recycling:glass":"yes","recycling:glass_bottles":"yes","recycling:magazines":"yes","recycling:newspaper":"yes","recycling:paper":"yes","recycling:paper_packaging":"yes","recycling:plastic":"no","recycling:plastic_bottles":"yes","recycling:plastic_packaging":"no","recycling:scrap_metal":"no","recycling:small_appliances":"no","recycling:waste":"no","recycling:wood":"no","recycling_type":"container"}},"type":"Feature"},
	{"geometry":{"coordinates":[-5.050684,55.838416],"type":"Point"},"properties":{"amenity":"recycling","name":"Albert Pier","osm_id":"4332456196","tag":{"description":"Public mini bring site for recycling 3 X 1100","operator":"Fyne Futures","recycling:cans":"yes","recycling:paper":"yes","recycling:plastic_bottles":"yes"}},"type":"Feature"},
	{"geometry":{"coordinates":[-5.050874,55.83768],"type":"Point"},"properties":{"amenity":"recycling","name":"Private Domestic Communal Bring Site","osm_id":"4332456197","tag":{"description":"4 X 240 ltr blue bins signed","recycling:cans":"yes","recycling:paper":"yes","recycling:plastic":"yes"}},"type":"Feature"},
	{"geometry":{"coordinates":[-5.056331,55.837548],"type":"Point"},"properties":{"amenity":"recycling","name":"Montague Street","osm_id":"4332456198","tag":{"description":"Orbis style for recycling on the go","operator":"Fyne Futures","recycling:cans":"yes","recycling:paper":"yes","recycling:plastic":"yes"}},"type":"Feature"},
	{"geometry":{"coordinates":[-5.057515,55.837106],"type":"Point"},"properties":{"amenity":"recycling","name":"Bridgend Street Garden","osm_id":"4332456199","tag":{"recycling:cans":"yes","recycling:paper":"yes","recycling:plastic":"yes"}},"type":"Feature"},
	{"geometry":{"coordinates":[-5.058362,55.837058],"type":"Point"},"properties":{"amenity":"recycling","name":"Collumnshill Residents Bring Site","osm_id":"4332456200","tag":{" 2 x 240 cans":null,"description":"Residents recycling point - 2 x 240l paper; 2 x 240l plastics","operator":"Fyne Futures","recycling:cans":"yes","recycling:paper":"yes","recycling:plastic":"yes"}},"type":"Feature"},
	{"geometry":{"coordinates":[-5.054646,55.8337],"type":"Point"},"properties":{"amenity":"recycling","name":"Minister's Brae Residents Bring Site","osm_id":"4332456201","tag":{" 2 x 240l cans":null," 2 x 240l plastics":null,"description":"2 x 240l paper","operator":"Fyne Futures","recycling:cans":"yes","recycling:paper":"yes","recycling:plastic":"yes"}},"type":"Feature"},
	{"geometry":{"coordinates":[-5.053681,55.833363],"type":"Point"},"properties":{"amenity":"recycling","name":"Glebe Terrace Residents Bring Sits","osm_id":"4332456202","tag":{" 2 x 240l can":null," 2 x 240l plastics":null,"description":"2 x 240l paper","operator":"Fyne Futures","recycling:cans":"yes","recycling:paper":"yes","recycling:plastic":"yes"}},"type":"Feature"}
]
}
